 [
  {
    "name": "Białystok", "latitude": 53.132260, "longitude": 23.167809
  },
  {
    "name": "Bydgoszcz", "latitude": 53.120743, "longitude": 18.018270
  },
  {
    "name": "Gdańsk", "latitude": 54.352685, "longitude": 18.639215
  },
  {
    "name": "Gorzów Wielkopolski", "latitude": 52.732159, "longitude": 15.236088
  },
  {
    "name": "Katowice", "latitude": 50.265494, "longitude": 19.020239
  },
  {
    "name": "Kielce", "latitude": 50.866826, "longitude": 20.629718
  },
  {
    "name": "Kraków", "latitude": 50.064400, "longitude": 19.947195
  },
  {
    "name": "Lublin", "latitude": 51.246486, "longitude": 22.561024
  },
  {
    "name": "Łódź", "latitude": 51.760795, "longitude": 19.459307
  },
  {
    "name": "Olsztyn", "latitude": 53.777837, "longitude": 20.483895
  },
  {
    "name": "Opole", "latitude": 50.674826, "longitude": 17.922103
  },
  {
    "name": "Poznań", "latitude": 52.407650, "longitude": 16.925012
  },
  {
    "name": "Rzeszów", "latitude": 50.041384, "longitude": 22.004248
  },
  {
    "name": "Szczecin", "latitude": 53.427242, "longitude": 14.564885
  },
  {
    "name": "Toruń", "latitude": 53.013496, "longitude": 18.597600,
  },
  {
    "name": "Warszawa", "latitude": 52.231256, "longitude": 21.012442
  },
  {
    "name": "Wrocław", "latitude": 51.108328, "longitude": 17.033063
  },
  {
    "name": "Zielona Góra", "latitude": 51.935632, "longitude": 15.505940
  }
]